[
   {
      "address":"станция Академгородок, Киев",
      "label":"Академгородок",
      "location":{
         "lat":50.464936,
         "lng":30.355272
      }
   },
   {
      "address":"станция Житомирская, Киев",
      "label":"Житомирская",
      "location":{
         "lat":50.4560768,
         "lng":30.3649982
      }
   },
   {
      "address":"станция Святошин, Киев",
      "label":"Святошин",
      "location":{
         "lat":50.457771,
         "lng":30.390585
      }
   },
   {
      "address":"станция Нивки, Киев",
      "label":"Нивки",
      "location":{
         "lat":50.458631,
         "lng":30.40391499999999
      }
   },
   {
      "address":"станция Брестская, Киев",
      "label":"Брестская",
      "location":{
         "lat":50.4501,
         "lng":30.5234
      }
   },
   {
      "address":"станция Шулявская, Киев",
      "label":"Шулявская",
      "location":{
         "lat":50.454489,
         "lng":30.447239
      }
   },
   {
      "address":"станция Политехнический институт, Киев",
      "label":"Политехнический институт",
      "location":{
         "lat":50.450953,
         "lng":30.465144
      }
   },
   {
      "address":"станция Вокзальная, Киев",
      "label":"Вокзальная",
      "location":{
         "lat":50.44139,
         "lng":30.489041
      }
   },
   {
      "address":"станция Университет, Киев",
      "label":"Университет",
      "location":{
         "lat":50.442925,
         "lng":30.503718
      }
   },
   {
      "address":"станция Театральная, Киев",
      "label":"Театральная",
      "location":{
         "lat":50.444851,
         "lng":30.516073
      }
   },
   {
      "address":"станция Крещатик, Киев",
      "label":"Крещатик",
      "location":{
         "lat":50.447056,
         "lng":30.525361
      }
   },
   {
      "address":"станция Арсенальная, Киев",
      "label":"Арсенальная",
      "location":{
         "lat":50.443017,
         "lng":30.547733
      }
   },
   {
      "address":"станция Днепр, Киев",
      "label":"Днепр",
      "location":{
         "lat":50.441228,
         "lng":30.559337
      }
   },
   {
      "address":"станция Гидропарк, Киев",
      "label":"Гидропарк",
      "location":{
         "lat":50.445971,
         "lng":30.576876
      }
   },
   {
      "address":"станция Левобережная, Киев",
      "label":"Левобережная",
      "location":{
         "lat":50.451937,
         "lng":30.598073
      }
   },
   {
      "address":"станция Дарница, Киев",
      "label":"Дарница",
      "location":{
         "lat":50.45574509999999,
         "lng":30.6118985
      }
   },
   {
      "address":"станция Черниговская, Киев",
      "label":"Черниговская",
      "location":{
         "lat":50.459967,
         "lng":30.63026
      }
   },
   {
      "address":"станция Лесная, Киев",
      "label":"Лесная",
      "location":{
         "lat":50.524605,
         "lng":30.378554
      }
   },
   {
      "address":"станция Героев Днепра, Киев",
      "label":"Героев Днепра",
      "location":{
         "lat":50.52273899999999,
         "lng":30.498971
      }
   },
   {
      "address":"станция Минская, Киев",
      "label":"Минская",
      "location":{
         "lat":50.51224200000001,
         "lng":30.498551
      }
   },
   {
      "address":"станция Оболонь, Киев",
      "label":"Оболонь",
      "location":{
         "lat":50.501466,
         "lng":30.49822799999999
      }
   },
   {
      "address":"станция Петровка, Киев",
      "label":"Петровка",
      "location":{
         "lat":50.486078,
         "lng":30.497851
      }
   },
   {
      "address":"станция Тараса Шевченко, Киев",
      "label":"Тараса Шевченко",
      "location":{
         "lat":50.474155,
         "lng":30.503491
      }
   },
   {
      "address":"станция Контрактовая площадь, Киев",
      "label":"Контрактовая площадь",
      "location":{
         "lat":50.46605,
         "lng":30.514996
      }
   },
   {
      "address":"станция Почтовая площадь, Киев",
      "label":"Почтовая площадь",
      "location":{
         "lat":50.4589633,
         "lng":30.5247585
      }
   },
   {
      "address":"станция Площадь Независимости (Майдан Незалежності), Киев",
      "label":"Площадь Независимости (Майдан Незалежності)",
      "location":{
         "lat":50.450878,
         "lng":30.5237438
      }
   },
   {
      "address":"станция Площадь Льва Толстого, Киев",
      "label":"Площадь Льва Толстого",
      "location":{
         "lat":50.440075,
         "lng":30.518021
      }
   },
   {
      "address":"станция Олимпийская, Киев",
      "label":"Олимпийская",
      "location":{
         "lat":50.4321543,
         "lng":30.516367
      }
   },
   {
      "address":"станция Дворец «Украина», Киев",
      "label":"Дворец «Украина»",
      "location":{
         "lat":50.421186,
         "lng":30.520611
      }
   },
   {
      "address":"станция Лыбидская, Киев",
      "label":"Лыбидская",
      "location":{
         "lat":50.414438,
         "lng":30.524882
      }
   },
   {
      "address":"станция Демеевская, Киев",
      "label":"Демеевская",
      "location":{
         "lat":50.40247,
         "lng":30.515092
      }
   },
   {
      "address":"станция Голосеевская, Киев",
      "label":"Голосеевская",
      "location":{
         "lat":50.39746,
         "lng":30.508361
      }
   },
   {
      "address":"станция Васильковская, Киев",
      "label":"Васильковская",
      "location":{
         "lat":50.393251,
         "lng":30.48767
      }
   },
   {
      "address":"станция Выставочный центр, Киев",
      "label":"Выставочный центр",
      "location":{
         "lat":50.382412,
         "lng":30.477655
      }
   },
   {
      "address":"станция Ипподром, Киев",
      "label":"Ипподром",
      "location":{
         "lat":50.37667399999999,
         "lng":30.46898699999999
      }
   },
   {
      "address":"станция Теремки, Киев",
      "label":"Теремки",
      "location":{
         "lat":50.3671714,
         "lng":30.4544127
      }
   },
   {
      "address":"станция Сырец, Киев",
      "label":"Сырец",
      "location":{
         "lat":50.476218,
         "lng":30.430678
      }
   },
   {
      "address":"станция Дорогожичи, Киев",
      "label":"Дорогожичи",
      "location":{
         "lat":50.473119,
         "lng":30.452247
      }
   },
   {
      "address":"станция Лукьяновская, Киев",
      "label":"Лукьяновская",
      "location":{
         "lat":50.46117899999999,
         "lng":30.483671
      }
   },
   {
      "address":"станция Золотые ворота, Киев",
      "label":"Золотые ворота",
      "location":{
         "lat":50.44615899999999,
         "lng":30.515426
      }
   },
   {
      "address":"станция Дворец спорта, Киев",
      "label":"Дворец спорта",
      "location":{
         "lat":50.439647,
         "lng":30.519533
      }
   },
   {
      "address":"станция Кловская, Киев",
      "label":"Кловская",
      "location":{
         "lat":50.435902,
         "lng":30.533423
      }
   },
   {
      "address":"станция Печерская, Киев",
      "label":"Печерская",
      "location":{
         "lat":50.426553,
         "lng":30.54012
      }
   },
   {
      "address":"станция Дружбы народов, Киев",
      "label":"Дружбы народов",
      "location":{
         "lat":50.416841,
         "lng":30.546918
      }
   },
   {
      "address":"станция Выдубичи, Киев",
      "label":"Выдубичи",
      "location":{
         "lat":50.402102,
         "lng":30.56016
      }
   },
   {
      "address":"станция Славутич, Киев",
      "label":"Славутич",
      "location":{
         "lat":50.394264,
         "lng":30.604859
      }
   },
   {
      "address":"станция Осокорки, Киев",
      "label":"Осокорки",
      "location":{
         "lat":50.395248,
         "lng":30.616231
      }
   },
   {
      "address":"станция Позняки, Киев",
      "label":"Позняки",
      "location":{
         "lat":50.397944,
         "lng":30.634579
      }
   },
   {
      "address":"станция Харьковская, Киев",
      "label":"Харьковская",
      "location":{
         "lat":50.3999356,
         "lng":30.6506377
      }
   },
   {
      "address":"станция Вырлица, Киев",
      "label":"Вырлица",
      "location":{
         "lat":50.40312,
         "lng":30.666891
      }
   },
   {
      "address":"станция Бориспольская, Киев",
      "label":"Бориспольская",
      "location":{
         "lat":50.403375,
         "lng":30.684195
      }
   },
   {
      "address":"станция Красный хутор, Киев",
      "label":"Красный хутор",
      "location":{
         "lat":50.409473,
         "lng":30.696203
      }
   }
]
